{
    "type": "FeatureCollection",
    "features": [
        {
            "type": "Feature",
            "properties": {
                "name":"God's Love Centre",
                "address": "Jehovah Shammah House,Camp. (the street after Energy Petrol station) Osiele, Ogun",
                "contact_info": "Blessing Ayanfe",
                "phone": ["08037127787","09037616154"]
            },
            "geometry": {
                "type": "Point",
                "coordinates": []
            }
        },
        {
            "type": "Feature",
            "properties": {
                "name":"Wisdom Centre",
                "address": "2, F.C.E. quaters, 2nd turning from 2nd gate after transformer, Osiele, Ogun",
                "contact_info": "Elder Wikina",
                "phone": "08037122400"
            },
            "geometry": {
                "type": "Point",
                "coordinates": []
            }
        },
        {
            "type": "Feature",
            "properties": {
                "name":"Oluwakemi Centre",
                "address": "Apakila junction, opposite Baale’s house, camp, Ogun",
                "contact_info": ["Mrs salami","Bro. Olayinka"],
                "phone": ""
            },
            "geometry": {
                "type": "Point",
                "coordinates": []
            }
        },
        {
            "type": "Feature",
            "properties": {
                "name":"Hephzibah centre",
                "address": "10, Salami close, opposite St James Ang. Church, Fatola Estate, Camp, Ogun",
                "contact_info": ["Dcns Olulola", "Mr Salami"],
                "phone": ["08035551834","08033857178"]
            },
            "geometry": {
                "type": "Point",
                "coordinates": []
            }
        },
        {
            "type": "Feature",
            "properties": {
                "name":"Salvation centre",
                "address": "9, F.C.E Staff Qtrs, Osiele, Ogun",
                "contact_info": "Mrs Ogunsanmi",
                "phone": ["07063667181","08037232082"]
            },
            "geometry": {
                "type": "Point",
                "coordinates": []
            }
        },
        {
            "type": "Feature",
            "properties": {
                "name":"Testimony Homecell",
                "address": "Road beside Bright cafe, Camp junction, Ogun",
                "contact_info": "Bro. Eduvie",
                "phone": "08066650498"
            },
            "geometry": {
                "type": "Point",
                "coordinates": []
            }
        },
        {
            "type": "Feature",
            "properties": {
                "name":"Glory Homecell",
                "address": "13, Kajola street, off Apakila road, Camp, Ogun",
                "contact_info": "Dr Olatubosun",
                "phone": ["08037127785","07034929923"]
            },
            "geometry": {
                "type": "Point",
                "coordinates": []
            }
        },
        {
            "type": "Feature",
            "properties": {
                "name":"Dominion Home cell",
                "address": "Flat 8, Senior Staff Qrts. 11, OORBDA, Alabata Rd, Abeokuta, Ogun",
                "contact_info": ["Mr. OjoMayowa","Assistant Sis. Ojo"],
                "phone": "08055551834"
            },
            "geometry": {
                "type": "Point",
                "coordinates": []
            }
        },
        {
            "type": "Feature",
            "properties": {
                "name":"",
                "address": "Plot 7, Block IV, Chief Abdul Kadejo layout (House beside Papa’s lodge Hostel), Harmoney Estate, FUNAAB, Alabata, Ogun",
                "contact_info": ["Mr. Okuboyejo Opeyemi", "Asst. Sis. Okuboyejo"],
                "phone": "08035023882"
            },
            "geometry": {
                "type": "Point",
                "coordinates": []
            }
        },
        {
            "type": "Feature",
            "properties": {
                "name":"",
                "address": "1, Oke street, Oluwokeesin, Near Latoye Hostel 2, via funaab Alabata Road, Abeokuta, Ogun",
                "contact_info": "Dr. Oke",
                "phone": "08034919161"
            },
            "geometry": {
                "type": "Point",
                "coordinates": []
            }
        },
        {
            "type": "Feature",
            "properties": {
                "name":"",
                "address": "Flat 3B, Rock Castle, Surulere Street, Off FUNAAB Road, Ogun",
                "contact_info": "Bro. Adedeji Olalekan",
                "phone": "08143926472"
            },
            "geometry": {
                "type": "Point",
                "coordinates": []
            }
        },
        {
            "type": "Feature",
            "properties": {
                "name":"Kofesu Student Fellowship",
                "address": "Kofesu Student Fellowship Beside FUNAAB onward hostel, Ogun",
                "contact_info": "Bro. Bodunde Isaac",
                "phone": "08173228571"
            },
            "geometry": {
                "type": "Point",
                "coordinates": []
            }
        },
        {
            "type": "Feature",
            "properties": {
                "name":"",
                "address": "Outstanding Domain Hostel, directly Opposite FUNAAB 2nd gate, Agbede, Ogun",
                "contact_info": "Sis Laureta",
                "phone": "09032981600"
            },
            "geometry": {
                "type": "Point",
                "coordinates": []
            }
        },
        {
            "type": "Feature",
            "properties": {
                "name":"",
                "address": "WCF FUNAAB, opposite 4tans Hostel FUNAAB Zoo, Ogun",
                "contact_info": "Sis. Peace",
                "phone": "08131669059"
            },
            "geometry": {
                "type": "Point",
                "coordinates": []
            }
        },
        {
            "type": "Feature",
            "properties": {
                "name":"Isolu Centre",
                "address": "Good Success Hostel, funaab, Ogun",
                "contact_info": "Bro. Samuel",
                "phone": "09063864664"
            },
            "geometry": {
                "type": "Point",
                "coordinates": []
            }
        },
        {
            "type": "Feature",
            "properties": {
                "address": "Shop 4/5, Harmony Estate, off FUNAAB Alabata road, Abeokuta, Ogun",
                "contact_info": ["Bro. Sunday","Mrs. Iwuoha"],
                "phone": "08168257566"
            },
            "geometry": {
                "type": "Point",
                "coordinates": []
            }
        },
        {
            "type": "Feature",
            "properties": {
                "name":"",
                "address": "53, Kajola Street,Behind Police Children School,Eleweran,Ogun",
                "contact_info": "Pst.Osanyintola",
                "phone": "08065611355"
            },
            "geometry": {
                "type": "Point",
                "coordinates": []
            }
        },
        {
            "type": "Feature",
            "properties": {
                "name":"",
                "address": "1, Kamoru Sonola Street, Gbonagun, Odo-Eran, Ogun",
                "contact_info": "Sis. Solaja",
                "phone": "08033004811"
            },
            "geometry": {
                "type": "Point",
                "coordinates": []
            }
        },
        {
            "type": "Feature",
            "properties": {
                "name":"",
                "address": "4, Zone B, Ilupeju Estate, Kotopo, Ogun",
                "contact_info": "Bro. Solomon",
                "phone": "08034756314"
            },
            "geometry": {
                "type": "Point",
                "coordinates": []
            }
        },
        {
            "type": "Feature",
            "properties": {
                "name":"",
                "address": "23, Progressive Estate, Eleweran, Ogun",
                "contact_info": "Prof. Sobukola",
                "phone": "08036353141"
            },
            "geometry": {
                "type": "Point",
                "coordinates": []
            }
        },
        {
            "type": "Feature",
            "properties": {
                "name":"",
                "address": "2, Folarin Street, Kajola Community, Eleweran, Ogun",
                "contact_info": "Mr. Sobajo",
                "phone": "08033199692"
            },
            "geometry": {
                "type": "Point",
                "coordinates": []
            }
        },
        {
            "type": "Feature",
            "properties": {
                "name":"",
                "address": "12, Zone D, Ilupeju Estate, Kotopo, Ogun",
                "contact_info": "Sis. Akparanta",
                "phone": "08165833625"
            },
            "geometry": {
                "type": "Point",
                "coordinates": []
            }
        },
        {
            "type": "Feature",
            "properties": {
                "name":"",
                "address": "Orisunmibare Community, Kotopo-Leso, Ogun",
                "contact_info": "Bro. Sokeye",
                "phone": "08035820358"
            },
            "geometry": {
                "type": "Point",
                "coordinates": []
            }
        },
        {
            "type": "Feature",
            "properties": {
                "name":"",
                "address": "21, Orisunbare, Kotopo, Off Camp Road, Ogun",
                "contact_info": "Bro. Bayo",
                "phone": "08122696109"
            },
            "geometry": {
                "type": "Point",
                "coordinates": []
            }
        },
        {
            "type": "Feature",
            "properties": {
                "name":"",
                "address": "Block 20, Room 3, Police Barrack, Eleweran, Ogun",
                "contact_info": "Dcns Nelson",
                "phone": "08141116020"
            },
            "geometry": {
                "type": "Point",
                "coordinates": []
            }
        },
        {
            "type": "Feature",
            "properties": {
                "name":"",
                "address": "20, Akindele Estate, Imole Ayo Community, Oke-Odo, Eleweran, Ogun",
                "contact_info": "Dcns Balogun",
                "phone": "08035752818"
            },
            "geometry": {
                "type": "Point",
                "coordinates": []
            }
        },
        {
            "type": "Feature",
            "properties": {
                "name":"Stephen Centre",
                "address": "Stephen Centre 2, beside Living Faith Church, Obantoko, Ogun",
                "contact_info": "Bro. Oladejo",
                "phone": "08060622226"
            },
            "geometry": {
                "type": "Point",
                "coordinates": []
            }
        },
        {
            "type": "Feature",
            "properties": {
                "name":"",
                "address": "1, Dolapo Street, Odo Eran, Ogun",
                "contact_info": "Dcns Sylvanus",
                "phone": "08138750470"
            },
            "geometry": {
                "type": "Point",
                "coordinates": []
            }
        },
        {
            "type": "Feature",
            "properties": {
                "name":"",
                "address": "8, Sobusi (Apena-Sojobi) Street, Off Ogunkola Street, Eleweran, Ogun",
                "contact_info": "Dr. Thomas",
                "phone": "09078218832"
            },
            "geometry": {
                "type": "Point",
                "coordinates": []
            }
        },
        {
            "type": "Feature",
            "properties": {
                "name":"",
                "address": "LFC, Obantoko Dominion Overflow, Odo eran, Ogun",
                "contact_info": ["Mrs. Fabusuyi","Miss Chinwe Stella Nmerole"],
                "phone": ["08138470752","08038769710"]
            },
            "geometry": {
                "type": "Point",
                "coordinates": []
            }
        },
        {
            "type": "Feature",
            "properties": {
                "name":"",
                "address": "6, Pa. Akanbi Odunmbaku Street, Unity Community, Gbonogun, Ogun",
                "contact_info": "Mrs. Omolekun",
                "phone": "08027608681"
            },
            "geometry": {
                "type": "Point",
                "coordinates": []
            }
        },
        {
            "type": "Feature",
            "properties": {
                "name":"",
                "address": "Osara Junction, Ogun",
                "contact_info": "Bro. Tunde Alamu",
                "phone": "08033719880"
            },
            "geometry": {
                "type": "Point",
                "coordinates": []
            }
        },
        {
            "type": "Feature",
            "properties": {
                "name":"",
                "address": "Plot 2, Opposite MOBAS Event Centre, Osara Junction, Gbonagun, Ogun",
                "contact_info": "Dcn. Aremu",
                "phone": "09069559378"
            },
            "geometry": {
                "type": "Point",
                "coordinates": []
            }
        },
        {
            "type": "Feature",
            "properties": {
                "name":"",
                "address": "Block H1, MAT Estate, Osara Road, Ogun",
                "contact_info": "Dcns. Adedokun",
                "phone": "08036353522"
            },
            "geometry": {
                "type": "Point",
                "coordinates": []
            }
        },
        {
            "type": "Feature",
            "properties": {
                "name":"",
                "address": "16, Tommy strt, unity rd, Gbonagun, Obantoko, Ogun",
                "contact_info": "Bro. Siwoku",
                "phone": "08035194305"
            },
            "geometry": {
                "type": "Point",
                "coordinates": []
            }
        },
        {
            "type": "Feature",
            "properties": {
                "name":"",
                "address": "Block B1, MAT Estate, Road 3, Osara Road, Ogun",
                "contact_info": "Bro Odule",
                "phone": ["08074290158","08165278322"]
            },
            "geometry": {
                "type": "Point",
                "coordinates": []
            }
        },
        {
            "type": "Feature",
            "properties": {
                "name":"",
                "address": "BLK D, MAT Estate, Ogun",
                "contact_info": "Bro. Daniel",
                "phone": ["08145171602","09050898911"]
            },
            "geometry": {
                "type": "Point",
                "coordinates": []
            }
        },
        {
            "type": "Feature",
            "properties": {
                "name":"",
                "address": "4, Subuloye Street, Kangudu, Ogun",
                "contact_info": "Bro. Joshua",
                "phone": "07069085058"
            },
            "geometry": {
                "type": "Point",
                "coordinates": []
            }
        },
        {
            "type": "Feature",
            "properties": {
                "name":"",
                "address": "Road A11, Akepe-Oluwa Estate, Obantoko, Ogun",
                "contact_info": "Mrs. Odeyale",
                "phone": "08033269677"
            },
            "geometry": {
                "type": "Point",
                "coordinates": []
            }
        },
        {
            "type": "Feature",
            "properties": {
                "name":"",
                "address": "2, Felix Omotosho Avenue, Toluwalase Estate, Ogun",
                "contact_info": "Mrs. Omotosho",
                "phone": "07035254677"
            },
            "geometry": {
                "type": "Point",
                "coordinates": []
            }
        },
        {
            "type": "Feature",
            "properties": {
                "name":"",
                "address": "12, Adeojo Street, Ifelodun Community, Unity Estate, Gbonogun, Ogun",
                "contact_info": "Dr. Adeyi",
                "phone": "08030692698"
            },
            "geometry": {
                "type": "Point",
                "coordinates": []
            }
        },
        {
            "type": "Feature",
            "properties": {
                "name":"",
                "address": "3, Surulere Olorire Street, Apete, Obantoko, Ogun",
                "contact_info": "Mr. Oludare",
                "phone": "07063956311"
            },
            "geometry": {
                "type": "Point",
                "coordinates": []
            }
        },
        {
            "type": "Feature",
            "properties": {
                "name":"",
                "address": "Amazing Grace Building, beside Sofela hostel, Aregbe, Ogun",
                "contact_info": "",
                "phone": ""
            },
            "geometry": {
                "type": "Point",
                "coordinates": []
            }
        },
        {
            "type": "Feature",
            "properties": {
                "name":"",
                "address": "4, God is Able, off Toko-taya Street,Aregbe, Ogun",
                "contact_info": "",
                "phone": ""
            },
            "geometry": {
                "type": "Point",
                "coordinates": []
            }
        },
        {
            "type": "Feature",
            "properties": {
                "name":"",
                "address": "behind Moongate hotel, Aregbe, Ogun",
                "contact_info": "",
                "phone": ""
            },
            "geometry": {
                "type": "Point",
                "coordinates": []
            }
        },
        {
            "type": "Feature",
            "properties": {
                "name":"",
                "address": "35, Ojoo-Oba, Oke Area, off Aregbe, Ogun",
                "contact_info": "",
                "phone": ""
            },
            "geometry": {
                "type": "Point",
                "coordinates": []
            }
        },
        {
            "type": "Feature",
            "properties": {
                "name":"",
                "address": "18, Oluwanisola Street, Ebamidupe Estate, Odo Eran, Ogun",
                "contact_info": "MrBilewu",
                "phone": "08163945042"
            },
            "geometry": {
                "type": "Point",
                "coordinates": []
            }
        },
        {
            "type": "Feature",
            "properties": {
                "name":"",
                "address": "Wonder Land Estate, Kotopo, Ogun",
                "contact_info": "MrGbadebo",
                "phone": "08039285967"
            },
            "geometry": {
                "type": "Point",
                "coordinates": []
            }
        },
        {
            "type": "Feature",
            "properties": {
                "name":"",
                "address": "Wonderland Estate, Kotopo, Ogun",
                "contact_info": "",
                "phone": ""
            },
            "geometry": {
                "type": "Point",
                "coordinates": []
            }
        },
        {
            "type": "Feature",
            "properties": {
                "name":"",
                "address": "PROSPERITY, Ogun",
                "contact_info": "",
                "phone": ""
            },
            "geometry": {
                "type": "Point",
                "coordinates": []
            }
        },
        {
            "type": "Feature",
            "properties": {
                "name":"",
                "address": "3, Ore Ofe Street. adjacent Baba Ijesha house, Akingbala, Eleweran, Ogun",
                "contact_info": "",
                "phone": ""
            },
            "geometry": {
                "type": "Point",
                "coordinates": []
            }
        },
        {
            "type": "Feature",
            "properties": {
                "name":"Mrs Oluwatoyin house",
                "address": "Ebenezer clinic(sofiya clinic), Fajol, Ogun",
                "contact_info": "Sister Rachel",
                "phone": ""
            },
            "geometry": {
                "type": "Point",
                "coordinates": []
            }
        },
        {
            "type": "Feature",
            "properties": {
                "name":"",
                "address": "Ogunbona close, Fajol Estate, Obantoko, Ogun",
                "contact_info": "Sister blessing",
                "phone": ""
            },
            "geometry": {
                "type": "Point",
                "coordinates": []
            }
        },
        {
            "type": "Feature",
            "properties": {
                "name":"",
                "address": "Fajol Estate, Obantoko, Ogun",
                "contact_info": "Sister Veronica",
                "phone": "08033184289"
            },
            "geometry": {
                "type": "Point",
                "coordinates": []
            }
        },
        {
            "type": "Feature",
            "properties": {
                "name":"Mr & Mrs Olatunji Oloruntedo",
                "address": "Fajol, Ogun",
                "contact_info": "Mr Olatunji",
                "phone": "07032053397"
            },
            "geometry": {
                "type": "Point",
                "coordinates": []
            }
        },
        {
            "type": "Feature",
            "properties": {
                "name":"",
                "address": "23, Mount Sinai Crescent, near Ola Royal Primary School, off Bola Ajibola,Asero, Ogun",
                "contact_info": "Dr Kukoyi",
                "phone": "08067421772"
            },
            "geometry": {
                "type": "Point",
                "coordinates": []
            }
        },
        {
            "type": "Feature",
            "properties": {
                "name":"",
                "address": "13B, Alhaji Ajisefini close, off Bola Ajibola st, Westley estate, Asero, Ogun",
                "contact_info": "Dcns Coker",
                "phone": "08022117322"
            },
            "geometry": {
                "type": "Point",
                "coordinates": []
            }
        }
    ]
}